[
  { "name": "New York", "latitude": 40.7128, "longitude": -74.0060, "country_code": "US", "country": "United States", "admin1": "New York", "population": 8000000 },
  { "name": "Los Angeles", "latitude": 34.0522, "longitude": -118.2437, "country_code": "US", "country": "United States", "admin1": "California", "population": 3900000 },
  { "name": "Chicago", "latitude": 41.8781, "longitude": -87.6298, "country_code": "US", "country": "United States", "admin1": "Illinois", "population": 2700000 },
  { "name": "Houston", "latitude": 29.7604, "longitude": -95.3698, "country_code": "US", "country": "United States", "admin1": "Texas", "population": 2300000 },
  { "name": "London", "latitude": 51.5072, "longitude": -0.1276, "country_code": "GB", "country": "United Kingdom", "admin1": "England", "population": 8800000 },
  { "name": "Manchester", "latitude": 53.4808, "longitude": -2.2426, "country_code": "GB", "country": "United Kingdom", "admin1": "England", "population": 550000 },
  { "name": "Birmingham", "latitude": 52.4862, "longitude": -1.8904, "country_code": "GB", "country": "United Kingdom", "admin1": "England", "population": 1100000 },
  { "name": "Edinburgh", "latitude": 55.9533, "longitude": -3.1883, "country_code": "GB", "country": "United Kingdom", "admin1": "Scotland", "population": 520000 },
  { "name": "Paris", "latitude": 48.8566, "longitude": 2.3522, "country_code": "FR", "country": "France", "admin1": "Île-de-France", "population": 2140000 },
  { "name": "Marseille", "latitude": 43.2965, "longitude": 5.3698, "country_code": "FR", "country": "France", "admin1": "Provence-Alpes-Côte d'Azur", "population": 870000 },
  { "name": "Berlin", "latitude": 52.5200, "longitude": 13.4050, "country_code": "DE", "country": "Germany", "admin1": "Berlin", "population": 3600000 },
  { "name": "Munich", "latitude": 48.1351, "longitude": 11.5820, "country_code": "DE", "country": "Germany", "admin1": "Bavaria", "population": 1500000 },
  { "name": "Tokyo", "latitude": 35.6762, "longitude": 139.6503, "country_code": "JP", "country": "Japan", "admin1": "Tokyo", "population": 13900000 },
  { "name": "Osaka", "latitude": 34.6937, "longitude": 135.5023, "country_code": "JP", "country": "Japan", "admin1": "Osaka", "population": 2700000 },
  { "name": "Delhi", "latitude": 28.6139, "longitude": 77.2090, "country_code": "IN", "country": "India", "admin1": "Delhi", "population": 16700000 },
  { "name": "Mumbai", "latitude": 19.0760, "longitude": 72.8777, "country_code": "IN", "country": "India", "admin1": "Maharashtra", "population": 12400000 },
  { "name": "Bengaluru", "latitude": 12.9716, "longitude": 77.5946, "country_code": "IN", "country": "India", "admin1": "Karnataka", "population": 8400000 },
  { "name": "Sydney", "latitude": -33.8688, "longitude": 151.2093, "country_code": "AU", "country": "Australia", "admin1": "New South Wales", "population": 5300000 },
  { "name": "Melbourne", "latitude": -37.8136, "longitude": 144.9631, "country_code": "AU", "country": "Australia", "admin1": "Victoria", "population": 5000000 },
  { "name": "Toronto", "latitude": 43.6532, "longitude": -79.3832, "country_code": "CA", "country": "Canada", "admin1": "Ontario", "population": 2700000 }
]
